{"businesses": [{"id": "3k1-FHqcxA4KGGOwcnZD8g", "alias": "north-cascades-national-park-marblemount-2", "name": "North Cascades National Park", "image_url": "https://s3-media4.fl.yelpcdn.com/bphoto/0Ga46oIklEyi2h-dOceFTg/o.jpg", "is_closed": "FALSE", "url": "https://www.yelp.com/biz/north-cascades-national-park-marblemount-2?adjust_creative=h6VaccJnsFTMJwpN_BD2Fw&utm_campaign=yelp_api_v3&utm_medium=api_v3_business_search&utm_source=h6VaccJnsFTMJwpN_BD2Fw", "review_count": 44, "categories": [{"alias": "hiking", "title": "Hiking"}, {"alias": "parks", "title": "Parks"}, {"alias": "fishing", "title": "Fishing"}], "rating": 5.0, "coordinates": {"latitude": 48.537967, "longitude": -121.448868}, "transactions": [], "location": {"address1": "7280 Ranger Station Rd", "address2": "", "address3": "", "city": "Marblemount", "zip_code": "98267", "country": "US", "state": "WA", "display_address": ["7280 Ranger Station Rd", "Marblemount, WA 98267"]}, "phone": "+13608734590", "display_phone": "(360) 873-4590", "distance": 21151.31966691625}, {"id": "GHDSHoYU0FOWforknTje5Q", "alias": "marblemount-diner-marblemount", "name": "Marblemount Diner", "image_url": "https://s3-media2.fl.yelpcdn.com/bphoto/6WV9mjdMwt33uGLDvHJScQ/o.jpg", "is_closed": "FALSE", "url": "https://www.yelp.com/biz/marblemount-diner-marblemount?adjust_creative=h6VaccJnsFTMJwpN_BD2Fw&utm_campaign=yelp_api_v3&utm_medium=api_v3_business_search&utm_source=h6VaccJnsFTMJwpN_BD2Fw", "review_count": 71, "categories": [{"alias": "diners", "title": "Diners"}, {"alias": "tradamerican", "title": "American (Traditional)"}], "rating": 4.0, "coordinates": {"latitude": 48.52753, "longitude": -121.43133}, "transactions": [], "price": "$$", "location": {"address1": "60147 State Route 20", "address2": "", "address3": "", "city": "Marblemount", "zip_code": "98267", "country": "US", "state": "WA", "display_address": ["60147 State Route 20", "Marblemount, WA 98267"]}, "phone": "+13608734503", "display_phone": "(360) 873-4503", "distance": 21212.25265707885}, {"id": "6SulB06N1QVR1tqUWgrfgg", "alias": "mondo-marblemount", "name": "Mondo", "image_url": "https://s3-media1.fl.yelpcdn.com/bphoto/3DR_nBfSUFPXXhjBOKec5w/o.jpg", "is_closed": "FALSE", "url": "https://www.yelp.com/biz/mondo-marblemount?adjust_creative=h6VaccJnsFTMJwpN_BD2Fw&utm_campaign=yelp_api_v3&utm_medium=api_v3_business_search&utm_source=h6VaccJnsFTMJwpN_BD2Fw", "review_count": 76, "categories": [{"alias": "newamerican", "title": "American (New)"}, {"alias": "korean", "title": "Korean"}], "rating": 4.0, "coordinates": {"latitude": 48.5263977050781, "longitude": -121.432144165039}, "transactions": [], "price": "$$", "location": {"address1": "60102 State Rte 20", "address2": "", "address3": "", "city": "Marblemount", "zip_code": "98267", "country": "US", "state": "WA", "display_address": ["60102 State Rte 20", "Marblemount, WA 98267"]}, "phone": "+13608732111", "display_phone": "(360) 873-2111", "distance": 21350.983664071613}, {"id": "vWBNO9meaKcp_0oOm57WGQ", "alias": "cascadian-farm-rockport-2", "name": "Cascadian Farm", "image_url": "https://s3-media3.fl.yelpcdn.com/bphoto/QDJAla0jTxd2WKXt_lUn-w/o.jpg", "is_closed": "FALSE", "url": "https://www.yelp.com/biz/cascadian-farm-rockport-2?adjust_creative=h6VaccJnsFTMJwpN_BD2Fw&utm_campaign=yelp_api_v3&utm_medium=api_v3_business_search&utm_source=h6VaccJnsFTMJwpN_BD2Fw", "review_count": 43, "categories": [{"alias": "icecream", "title": "Ice Cream & Frozen Yogurt"}, {"alias": "organic_stores", "title": "Organic Stores"}, {"alias": "pickyourown", "title": "Pick Your Own Farms"}], "rating": 4.5, "coordinates": {"latitude": 48.499273, "longitude": -121.529507}, "transactions": [], "price": "$$$", "location": {"address1": "55931 SR20 Rockport", "address2": "", "address3": "", "city": "Rockport", "zip_code": "98283", "country": "US", "state": "WA", "display_address": ["55931 SR20 Rockport", "Rockport, WA 98283"]}, "phone": "+18006244123", "display_phone": "(800) 624-4123", "distance": 28481.54062486115}, {"id": "wz1qNmPEyprl8lVNlyeCKQ", "alias": "5bs-bakery-concrete", "name": "5b's Bakery", "image_url": "https://s3-media1.fl.yelpcdn.com/bphoto/FJPihCrdeTHP_vSq73OU6g/o.jpg", "is_closed": "FALSE", "url": "https://www.yelp.com/biz/5bs-bakery-concrete?adjust_creative=h6VaccJnsFTMJwpN_BD2Fw&utm_campaign=yelp_api_v3&utm_medium=api_v3_business_search&utm_source=h6VaccJnsFTMJwpN_BD2Fw", "review_count": 90, "categories": [{"alias": "bakeries", "title": "Bakeries"}, {"alias": "gluten_free", "title": "Gluten-Free"}, {"alias": "sandwiches", "title": "Sandwiches"}], "rating": 4.5, "coordinates": {"latitude": 48.5388089, "longitude": -121.7529862}, "transactions": [], "price": "$$", "location": {"address1": "45597 Main St", "address2": "", "address3": "", "city": "Concrete", "zip_code": "98237", "country": "US", "state": "WA", "display_address": ["45597 Main St", "Concrete, WA 98237"]}, "phone": "+13608538700", "display_phone": "(360) 853-8700", "distance": 40176.62940457503}, {"id": "bi8sMlQZcaqyMPTyav7NMg", "alias": "annies-pizza-station-concrete", "name": "Annie's Pizza Station", "image_url": "https://s3-media1.fl.yelpcdn.com/bphoto/-ZQzRwzcPBGKkrZlFFbw5w/o.jpg", "is_closed": "FALSE", "url": "https://www.yelp.com/biz/annies-pizza-station-concrete?adjust_creative=h6VaccJnsFTMJwpN_BD2Fw&utm_campaign=yelp_api_v3&utm_medium=api_v3_business_search&utm_source=h6VaccJnsFTMJwpN_BD2Fw", "review_count": 78, "categories": [{"alias": "pizza", "title": "Pizza"}], "rating": 4.5, "coordinates": {"latitude": 48.5379094119893, "longitude": -121.776099310809}, "transactions": [], "price": "$$", "location": {"address1": "44568 State Rt 20", "address2": "", "address3": "", "city": "Concrete", "zip_code": "98237", "country": "US", "state": "WA", "display_address": ["44568 State Rt 20", "Concrete, WA 98237"]}, "phone": "+13608537227", "display_phone": "(360) 853-7227", "distance": 41794.095350368254}, {"id": "Yf-MR-oG-To0VgVmrW_phw", "alias": "miga-asian-cuisine-restaurant-concrete-2", "name": "Miga Asian Cuisine Restaurant", "image_url": "https://s3-media3.fl.yelpcdn.com/bphoto/OE9NPXJYjU4FJRm0gJXijg/o.jpg", "is_closed": "FALSE", "url": "https://www.yelp.com/biz/miga-asian-cuisine-restaurant-concrete-2?adjust_creative=h6VaccJnsFTMJwpN_BD2Fw&utm_campaign=yelp_api_v3&utm_medium=api_v3_business_search&utm_source=h6VaccJnsFTMJwpN_BD2Fw", "review_count": 51, "categories": [{"alias": "asianfusion", "title": "Asian Fusion"}, {"alias": "bbq", "title": "Barbeque"}, {"alias": "korean", "title": "Korean"}], "rating": 4.5, "coordinates": {"latitude": 48.5380376803699, "longitude": -121.775543426771}, "transactions": [], "price": "$$", "location": {"address1": "44618 State Rt 20", "address2": "", "address3": "", "city": "Concrete", "zip_code": "98237", "country": "US", "state": "WA", "display_address": ["44618 State Rt 20", "Concrete, WA 98237"]}, "phone": "+13608538652", "display_phone": "(360) 853-8652", "distance": 41750.786111554706}, {"id": "j_RiP0QCqXhJYH0dh2XWKw", "alias": "diablo-lake-diablo", "name": "Diablo Lake", "image_url": "https://s3-media2.fl.yelpcdn.com/bphoto/eHYAgmPrNgbaI0lqfZKRbQ/o.jpg", "is_closed": "FALSE", "url": "https://www.yelp.com/biz/diablo-lake-diablo?adjust_creative=h6VaccJnsFTMJwpN_BD2Fw&utm_campaign=yelp_api_v3&utm_medium=api_v3_business_search&utm_source=h6VaccJnsFTMJwpN_BD2Fw", "review_count": 7, "categories": [{"alias": "lakes", "title": "Lakes"}], "rating": 4.5, "coordinates": {"latitude": 48.7116492034813, "longitude": -121.113595518311}, "transactions": [], "location": {"address1": "", "address2": "", "address3": "", "city": "Diablo", "zip_code": "98283", "country": "US", "state": "WA", "display_address": ["Diablo, WA 98283"]}, "phone": "", "display_phone": "", "distance": 10598.538807465067}, {"id": "ezk_5hlG9UDO0OxImEyo4A", "alias": "the-eatery-rockport-2", "name": "The Eatery", "image_url": "https://s3-media1.fl.yelpcdn.com/bphoto/cVuYNL53L_WjMW69dP_l7A/o.jpg", "is_closed": "FALSE", "url": "https://www.yelp.com/biz/the-eatery-rockport-2?adjust_creative=h6VaccJnsFTMJwpN_BD2Fw&utm_campaign=yelp_api_v3&utm_medium=api_v3_business_search&utm_source=h6VaccJnsFTMJwpN_BD2Fw", "review_count": 18, "categories": [{"alias": "diners", "title": "Diners"}], "rating": 4.0, "coordinates": {"latitude": 18.56503, "longitude": 73.916927}, "transactions": [], "price": "$$", "location": {"address1": "58468 Clark Cabin Rd", "address2": "", "address3": "", "city": "Rockport", "zip_code": "98283", "country": "US", "state": "WA", "display_address": ["58468 Clark Cabin Rd", "Rockport, WA 98283"]}, "phone": "+13608732414", "display_phone": "(360) 873-2414", "distance": 24409.015570588308}, {"id": "jEDJNG0vJiBpEF0uKTrYdg", "alias": "cascade-burgers-concrete", "name": "Cascade Burgers", "image_url": "https://s3-media3.fl.yelpcdn.com/bphoto/NiXDrD23fRFbvw5RTJrd4Q/o.jpg", "is_closed": "FALSE", "url": "https://www.yelp.com/biz/cascade-burgers-concrete?adjust_creative=h6VaccJnsFTMJwpN_BD2Fw&utm_campaign=yelp_api_v3&utm_medium=api_v3_business_search&utm_source=h6VaccJnsFTMJwpN_BD2Fw", "review_count": 57, "categories": [{"alias": "burgers", "title": "Burgers"}], "rating": 4.5, "coordinates": {"latitude": 48.535748, "longitude": -121.759499}, "transactions": [], "price": "$", "location": {"address1": "45292 State Rt 20", "address2": "", "address3": "", "city": "Concrete", "zip_code": "98237", "country": "US", "state": "WA", "display_address": ["45292 State Rt 20", "Concrete, WA 98237"]}, "phone": "+13608537580", "display_phone": "(360) 853-7580", "distance": 40749.082881971226}], "total": 257, "region": {"center": {"longitude": -121.24614715576172, "latitude": 48.67384372605966}}}
